{"description":"Venha participar conosco do nosso primeiro arrai\u00e1... com muita alegria, m\u00fasicas t\u00edpicas e o melhor comilan\u00e7a... s\u00f4\nAproveite para ficar linda, ainda temos alguns hor\u00e1rios ;)","end_time":"2017-06-24T17:00:00-0300","name":"Arrai\u00e1 Spa Cascadura","place":{"name":"Spa das Sobrancelhas Unidade: Cascadura","location":{"city":"Rio de Janeiro","country":"Brazil","latitude":-22.87994,"longitude":-43.3259315,"state":"RJ","street":"Rua Sidonio Pais, loja 73 - Cascadura","zip":"21350-031"},"id":"1452474638402586"},"start_time":"2017-06-24T10:00:00-0300","id":"650231675175658"}
{"description":"toque no cajado,toque com f\u00e9 em o nome de jesus de nazar\u00e9","end_time":"2017-06-22T22:00:00-0300","name":"Campanha Do Cajado De Mois\u00e9s,Itamaraty 248 Cascadura.","place":{"name":"Rio de Janeiro","location":{"city":"Cascadura","country":"Brazil","latitude":-22.8817,"longitude":-43.3306,"state":"RJ"},"id":"109307682423030"},"start_time":"2017-06-22T19:00:00-0300","id":"466185447072203"}
{"description":"Venda mesas a partir do dia 19\/06 as 16:00h na recep\u00e7\u00e3o do Studio de Dan\u00e7a Com-Passos\nR$30,00\n(Com direito a 4 INGRESSOS)\n\n\nSer\u00e1 cobrado um ingresso no valor de:\nR$5,00 no local do evento","end_time":"2017-07-16T20:00:00-0300","name":"ARRAI\u00c1 DA COM-PASSOS ","place":{"name":"Cascadura T\u00eanis Clube","location":{"city":"Rio de Janeiro, Sudeste","latitude":-22.8795062,"longitude":-43.3248198,"street":"164  Rua Barbosa","zip":"21350-020"},"id":"1917844045161887"},"start_time":"2017-07-16T15:00:00-0300","id":"1438409386253957"}
{"description":"TA AFIM DE CURTIR O ULTIMO SHOW DA Banda Strike NO RJ E CURTIR A Staka Stk TBM??? \n\nA STAKA ESTA FECHANDO VAN QUE VAI SAIR DO TERMINAL DE NITER\u00d3I E VAI LEVAR AT\u00c9 O SHOW NA PLANET MUSIC, E DEPOIS VAI LEVAR DE VOLTA PRA NITER\u00d3I.\n\nCOMO ASSIM???\n\nSIMPLES, INDO DE VAN COM A STAKA VC JA ESTAR\u00c1 COM SEU INGRESSO COM VALOR DO 1\u00b0 LOTE GARANTIDO...\nO VALOR DA VAN COM MAIS O INGRESSO DO SHOW ESTA SAINDO A R$ 55,00 (R$ 30,00 da van por cabe\u00e7a e mais R$ 25,00 do ingresso, valor de 1\u00b0 lote)\n.\n.\n.... A VAN VAI ESTAR SAINDO DO CENTRO DE NITER\u00d3I ( No Mc Donalds do lado de fora em frente ao Bay Market) \u00c0S 14H, E DEIXAR\u00c1 NA PLANET MUSIC, E DEPOIS VOLTAR\u00c1 PRA PEGAR TODOS NO FINAL DO EVENTO E DEIXAR\u00c1 DE NOVO NO CENTRO DE NITER\u00d3I...\n.\n.\nOBS: O PAGAMENTO DA VAN E DOS INGRESSOS DEVER\u00c3O, SE POSS\u00cdVEL, SEREM EFETUADOS 2 DIAS ANTES DO EVENTO.( At\u00e9 o dia 07\/07\/17 - Sexta-feira)\n.\n.\n... PARA TIRAR D\u00daVIDAS S\u00d3 CHAMAR NO CHAT OU ENTRAR EM CONTADO COM ESSE N\u00daMERO - (21) 97269-8071 Wpp.\n\n*********VAI FICAR DE FORA DESSA?*********","end_time":"2017-07-09T22:00:00-0300","name":"VANbora, Niter\u00f3i! Strike - turn\u00ea de despedida no RJ abertura STAKA +3 Bandas!","place":{"name":"Planet Music Cascadura","location":{"city":"Rio de Janeiro","country":"Brazil","latitude":-22.7954925,"longitude":-43.38588,"state":"RJ","street":"Rua In\u00e1cio Serra","zip":"25530-320"},"id":"774862072545248"},"start_time":"2017-07-09T15:00:00-0300","id":"698626236990889"}
{"description":"O melhor da m\u00fasica dos anos 70, 80 e 90. Venha curtir um baile como dos bons tempos.","end_time":"2017-07-15T23:59:00-0300","name":"Flashback Carioca. O melhor baile do Rio de Janeiro","place":{"name":"Cascadura T\u00eanis Clube","location":{"city":"Rio de Janeiro","country":"Brazil","latitude":-22.8795062,"longitude":-43.3248198,"state":"RJ","street":"R. Barbosa, 164 - Cascadura","zip":"21350020"},"id":"966766650077096"},"start_time":"2017-07-15T19:00:00-0300","id":"1606346786045255"}
{"description":"Rifa do melhor perfume dos tempos.\nEMPIRE!\nN\u00e3o fique de fora!!!","name":"Rifa Do Empire","place":{"name":"Rio de Janeiro","location":{"city":"Cascadura","country":"Brazil","latitude":-22.8817,"longitude":-43.3306,"state":"RJ"},"id":"109307682423030"},"start_time":"2017-06-30T17:00:00-0300","id":"109276622958076"}
