{"description":"Participe conosco da VIG\u00cdLIA DA GUERRA. Ser\u00e1 transmitida da Catedral de Del Castilho no RJ, para todo BRASIL.","end_time":"2017-06-24T06:30:00-0300","name":"Vig\u00edlia da Guerra","place":{"name":"Universal Del Castilho","location":{"city":"Rio de Janeiro","country":"Brazil","latitude":-22.88178,"longitude":-43.27529,"state":"RJ","street":"Avenida Dom Helder C\u00e2mara, 4242 - Del Castilho","zip":"20771-003"},"id":"1525978324381367"},"start_time":"2017-06-23T23:00:00-0300","id":"1425844724140239"}
{"description":"Venha para a festa Julina mais animada e deliciosa de Del Castilho","end_time":"2017-07-09T22:00:00-0300","name":"Arrai\u00e1 da Cidinha","place":{"name":"Par\u00f3quia Nossa Senhora Aparecida - Del Castilho","location":{"city":"Rio de Janeiro","country":"Brazil","latitude":-22.87811,"longitude":-43.26813,"state":"RJ","street":"Travessa Eduardo, 29","zip":"21051-130"},"id":"553331161437096"},"start_time":"2017-07-08T17:00:00-0300","id":"246499382500386"}
{"description":"Ser\u00e1 uma noite muito gostosa e divertida. Com R$15,00, voc\u00ea ter\u00e1 direito a uma por\u00e7\u00e3o  de 5 past\u00e9is (um de cada sabor) e ainda estar\u00e1 ajudando na obra de Nossa Par\u00f3quia. Convide os amigos e venha! \n\nSabores: queijo, carne, frango, mussarela com calabresa e banana com chocolate.\n\nEnd.: Travessa Eduardo, 29 - Del Castilho","end_time":"2017-06-24T23:00:00-0300","name":"Festival de Pastel com Karaok\u00ea NSA","place":{"name":"Par\u00f3quia Nossa Senhora Aparecida - Del Castilho","location":{"city":"Rio de Janeiro","country":"Brazil","latitude":-22.87811,"longitude":-43.26813,"state":"RJ","street":"Travessa Eduardo, 29","zip":"21051-130"},"id":"553331161437096"},"start_time":"2017-06-24T19:00:00-0300","id":"708874479296058"}
