{"description":"Inaugura\u00e7\u00e3o com grandes atra\u00e7\u00f5es :\n\ud83d\udd39Verifica\u00e7\u00e3o de Glicose \n\ud83d\udd39Verifica\u00e7\u00e3o de press\u00e3o \n\ud83d\udd39Compre aplique Bioextratus \n\ud83d\udd39Compre aplique Acquaflora \n\ud83d\udd39Compre e aplique Vult \n\ud83d\udd39Cama el\u00e1stica para crian\u00e7ada brincar\n\ud83d\udd39E muito mais ....\n\ud83d\udd39Venha e traga sua fam\u00edlia para conferir !!","name":"Grande Inaugura\u00e7\u00e3o MEP Pavuna II","place":{"name":"Rua Merc\u00fario 47, Loja A Pavuna. "},"start_time":"2017-06-12T10:00:00-0300","id":"728197107359542"}
{"description":"Chegamos com mais uma boa para todos voc\u00ea, sempre inovando como de costume, as manas v\u00e3o se sentir em casa (porque essa \u00e9 a inten\u00e7\u00e3o tamb\u00e9m n\u00e9?!), decidimos trazer o mundo colorido, um lugar aonde todos s\u00e3o bem-vindos com muito carinho e principalmente muito respeito! VOC\u00caS QUEREM CLOSE?! TOMA CLOSE!!\nPra quem ainda t\u00e1 em N\u00e1rnia, essa edi\u00e7\u00e3o vem pra voc\u00ea sair do arm\u00e1rio e junto com voc\u00ea, trazer seus chifres de unic\u00f3rnio, asa de fada, calda de sereia, purpurina, e at\u00e9 os an\u00f5es da Branca de neve! Afinal, pra que ter 1 se podemos ter 7?! Ativa os contatinhos que vai vir escorregando ARROCHA DO VALE DA DJ!!!!! \ud83d\udc96\u2728\ud83e\udd84\ud83c\udf08\n\nNo final do arco-iris voc\u00ea vai encontrar:\n(  ) um gnomo\n(  ) pote de ouro\n(x) sarra\u00e7\u00e3o\nE \u00e9 proibido sair sem sarrar!!!\n\n___________________________________________________\n\nLISTA AMIGA de 15:00 - 18:00 - R$15\nDe 18:00 - 22:00 - R$20\n___________________________________________________\n\n\ud83d\udeab\ud83d\udeab\ud83d\udeab PROIBIDO \ud83d\udeab\ud83d\udeab\ud83d\udeab\n\n- Drogas.\n- Bebidas.\n- Mochila.\n\n___________________________________________________\n\n\ud83e\udd84LINE DO VALE \ud83e\udd84 \n\n\u27a1 Dj Lucian \n\u27a1 Dj Kacesar \n\u27a1 Dj Vit\u00f3ria Ribeiro \n\u27a1 Dj Under Control \n\u27a1 Dj Romulo","end_time":"2017-06-11T22:00:00-0300","name":"\u00c9 HOJE! Arrocha da DJ - Edi\u00e7\u00e3o vale (LISTA AMIGA)","place":{"name":"Clube Paratodos da Pavuna","location":{"city":"Rio de Janeiro","country":"Brazil","latitude":-22.8061104,"longitude":-43.3676109,"state":"RJ","street":"Rua Comendador Guerra, 84","zip":"21520-210"},"id":"1667133746867168"},"start_time":"2017-06-11T15:00:00-0300","id":"1395765457133422"}
{"end_time":"2017-06-11T22:00:00-0300","name":"Arena do Reggae","place":{"name":"Arena cultural da Pavuna","location":{"city":"Rio de Janeiro","country":"Brazil","latitude":-22.80783769,"longitude":-43.35853503,"state":"RJ","street":"Pra\u00e7a \u00canio, S\/N - Pavuna, Rio de Janeiro - RJ","zip":"21520-410"},"id":"240999186014867"},"start_time":"2017-06-11T17:00:00-0300","id":"1366722320077357"}
{"end_time":"2017-06-11T23:30:00-0300","name":"Karaok\u00ea - Todos os Domingos - 17H","place":{"name":"Esquina do Peixe - Pavuna","location":{"city":"Rio de Janeiro","country":"Brazil","latitude":-22.81606,"longitude":-43.3537899,"state":"RJ","street":"Alameda 28 dos Ticos-Ticos - 124 - Pavuna"},"id":"1195670513891846"},"start_time":"2017-06-11T17:00:00-0300","id":"1543744635669953"}
{"description":"NDCrime + Tarja Preta Convidam: Edi\u00e7\u00e3o Porn Love \n\nM\u00f8b SVGV + Tarja Preta BXD\n\nSalve, Salve Danados e Danadas como sabem no dia 12\/06 \u00e9 dia dos namorados\/contatinhos\/peguetes\/amantes e afins. Pensando nisso n\u00f3s da Equipe Tarja Preta e o Os irm\u00e3os da NDCrime (No Division Crime) resolvemos se juntar e fazer aquele evento do jeito que os capeta gosta; Um evento regado de m\u00fasicas pras danada rebolar a raba, um evento regado de alegria, respeito, PEACE and LOVE. Estaremos disponibilizando pra voc\u00eas um ambiente familiar, um clima agrad\u00e1vel, som de qualidade, bar (cerveja, \u00e1gua, catuaba, refeigerante), exposi\u00e7\u00e3o e vendas de artesanatos e acess\u00f3rios, exposicao e venda de roupas. \n\n** Batalha de Twerk com PREMIA\u00c7\u00c3O ** Isso mesmo... voc\u00ea ai que tem uma raba rebolativa, estaremos realizando uma batalha de twerk, ser\u00e3o 10 vagas. E as inscri\u00e7\u00f5es v\u00e3o ser feitas no dia e local do evento\n\n Line Up\n\n- Djs -\ud83d\udd0a\n\nDJ SAQUAX (Tarja Preta BXD) - Residente\nDj Torvic (MobSaga\/Batalha da 4p) - Residente\nDj Jesus - BXD (Roda cultural de heliopolis\/Itaipu\/Parque Uni\u00e3o)\nDj Style (Golden Era\/Kaws)\nDj Jahba (Neur\u00f4nios)\nDj MEDU$A (MEDU$A CLOTHING\/Festa RVRE)\n\n- Shows -\n\nTarja Preta BXD\nMobSaga\n\n# SlackLine Tchaba Mello Gunjahclan\n# Exposi\u00e7\u00e3o e vendas Brech\u00f3 Empower. #\n\n\n\n\n\n                  ...Venda de Bebidas No Local...\n                    (Prefer\u00eancia Ao Bar do evento)\n\n\nOrganiza\u00e7\u00e3o: Equipe Tarja Preta  - Nodivisionclan\n\n\n            \"Proibido o uso de drogas ilicitas no local\"","end_time":"2017-06-12T00:00:00-0300","name":"\u00c9 HOJEEEEE ! NDCrime + Tarja Preta 11\/06 (0800)","place":{"name":"Pra\u00e7a Do Pipi-popo Pavuna","location":{"city":"Rio de Janeiro","country":"Brazil","latitude":-22.8166321075,"longitude":-43.352801263889,"state":"RJ","street":"rua dom basilio s\/n pavuna","zip":"21521-350"},"id":"298495696901972"},"start_time":"2017-06-11T16:20:00-0300","id":"1015134818622525"}
{"description":"Nossas reuni\u00f5es s\u00e3o ter\u00e7as e quintas as 19:30 e domingo 19;00h durante todo o m\u00eas de junho teremos preletores com uma palavra aben\u00e7oada para sua vida. Vem participar com a gente!","end_time":"2017-06-11T21:00:00-0300","name":"Junho m\u00eas da fam\u00edlia","place":{"name":"Igreja Pentecostal Cristo Salva em Pavuna","location":{"city":"Rio de Janeiro","country":"Brazil","latitude":-22.81,"longitude":-43.37177,"state":"RJ","street":"Rua Nina Ribeiro,338- Pavuna","zip":"21520290"},"id":"445616155636032"},"start_time":"2017-06-04T19:00:00-0300","id":"434945160219566"}
{"description":"Com muita alegria venho compartilhar com voc\u00eas a segunda edi\u00e7\u00e3o do nosso ''BRESHOPPING''.\nTemos o intuito de atender todas as sugest\u00f5es, com isso oferecendo conforto e as pe\u00e7as por um precinho imb\u00e1tivel!\nAs pe\u00e7as estar\u00e3o na faixa de 1 \u00e0 20,00 reais. \nE pra voc\u00ea expor, suas pe\u00e7as no dia do evento custar\u00e1 10,00 reais ( tendo direito a uma mesa e 1 cadeira, como suporte) \nN\u00e3o vai expor, por\u00e9m vai comparecer no evento!?\nA entrada estar\u00e1 custando 1kg de alimento n\u00e3o perecivel ou 1 agasalho que ser\u00e1 doado pra instui\u00e7\u00e3o carente.\nE aqui ter\u00e1 diversas coisinhas pra comer \u2665\ufe0f\nVai ficar fora dessa? CLARO QUE N\u00c3O N\u00c9!!!!!\nEndere\u00e7o: Rua dores do turvo, 170, bloco 2\/ Play ( na frente da pra\u00e7a do vilagge) \nConto com a presen\u00e7a de todos voc\u00eas!","end_time":"2017-06-11T18:00:00-0300","name":"\u2765 Breshopping 2\u00aa EDIT","place":{"name":"Pavuna, Rio de Janeiro","location":{"city":"Pavuna","country":"Brazil","latitude":-22.8111,"longitude":-43.3575,"state":"RJ"},"id":"110289282322915"},"start_time":"2017-06-11T12:00:00-0300","id":"1316372301773913"}
{"description":"U\u00c9","name":"A MULHER DO SHAMPOO ME VE PELADO","place":{"name":"RIO PAVUNA "},"start_time":"2028-11-02T12:00:00-0200","id":"1564370693809770"}
{"end_time":"2017-06-10T23:30:00-0300","name":"Encontro de Vinil Leandro DjDj AmaroJose Dee Jay","place":{"name":"Esquina do Peixe - Pavuna","location":{"city":"Rio de Janeiro","country":"Brazil","latitude":-22.81606,"longitude":-43.3537899,"state":"RJ","street":"Alameda 28 dos Ticos-Ticos - 124 - Pavuna"},"id":"1195670513891846"},"start_time":"2017-06-10T12:00:00-0300","id":"1435849983104542"}
{"description":"O Instituto de Educa\u00e7\u00e3o L\u00facia Leit\u00e3o tem o prazer de convidar amigos, alunos, ex alunos e familiares para a nossa grande Festa Nordestina.\n Uma tarde agrad\u00e1vel com :\n- Comidas t\u00edpicas\n- Dan\u00e7as regionais\n- N\u00fameros especiais \n- Pescaria\n- Brincadeiras para as crian\u00e7as\n- Correio do amor e muito mais ...","end_time":"2017-07-02T18:00:00-0300","name":"Festa Nordestina do IELL","place":{"name":"Clube Paratodos da Pavuna","location":{"city":"Rio de Janeiro","country":"Brazil","latitude":-22.8061104,"longitude":-43.3676109,"state":"RJ","street":"Rua Comendador Guerra, 84","zip":"21520-210"},"id":"1667133746867168"},"start_time":"2017-07-02T14:00:00-0300","id":"442268089468544"}
{"description":"Uma festa totalmente familiar e religiosa, um momento de venera\u00e7\u00e3o, celebra\u00e7\u00e3o e muita divers\u00e3o, aonde podemos encontrar amigos, confraternizar com a fam\u00edlia e comunidade, agradecer \u00e0s b\u00ean\u00e7\u00e3os alcan\u00e7adas por interven\u00e7\u00e3o do nosso padroeiro, al\u00e9m de saborear comidas t\u00edpicas e deliciosas, curtir boas atra\u00e7\u00f5es(show com o m\u00fasico Daniel Bernardo, banda Gen\u00e9ricos do Rock, Studio de dan\u00e7a Aline Ara\u00fajo, Bastos DTK Taekwondo, banda algo a mais, DJ, banda Cristo Terra Nova), passar noites agrad\u00e1veis\ud83e\udd17","end_time":"2017-06-13T23:30:00-0300","name":"Festa do Padroeiro Santo Ant\u00f4nio","place":{"name":"Igreja Santo Ant\u00f4nio Pavuna","location":{"city":"Pavuna","country":"Brazil","latitude":-22.808536742008,"longitude":-43.370314375347,"state":"RJ","street":"Pra\u00e7a Nossa Senhora das Dores s\/n Pavuna","zip":"21520300"},"id":"213154985378529"},"start_time":"2017-06-02T17:00:00-0300","id":"1190301061097917"}
{"end_time":"2017-06-10T03:00:00-0300","name":"Sexta Embrazada - Ronaldinho Filho e Convidados - 21H","place":{"name":"Esquina do Peixe - Pavuna","location":{"city":"Rio de Janeiro","country":"Brazil","latitude":-22.81606,"longitude":-43.3537899,"state":"RJ","street":"Alameda 28 dos Ticos-Ticos - 124 - Pavuna"},"id":"1195670513891846"},"start_time":"2017-06-09T21:00:00-0300","id":"233749453779009"}
{"description":"Culto com muito amor!","end_time":"2017-06-14T21:00:00-0300","name":"Culto dos Apaixonados","place":{"name":"Igreja Adventista do S\u00e9timo Dia de Pavuna","location":{"city":"Rio de Janeiro","country":"Brazil","latitude":-22.8081493,"longitude":-43.3693619,"state":"RJ","street":"Rua Comendador Guerra, 346, Pavuna","zip":"21520-210"},"id":"207286422639358"},"start_time":"2017-06-14T20:00:00-0300","id":"471745999836089"}
{"description":"Venha Dan\u00e7ar ao som do conjunto Aeroporto e Dj Gerson","end_time":"2017-06-10T23:00:00-0300","name":"Niver da professora Telminha Sorriso","place":{"name":"Clube Paratodos da Pavuna","location":{"city":"Rio de Janeiro","country":"Brazil","latitude":-22.8061104,"longitude":-43.3676109,"state":"RJ","street":"Rua Comendador Guerra, 84","zip":"21520-210"},"id":"1667133746867168"},"start_time":"2017-06-10T18:00:00-0300","id":"668127053380477"}
{"description":"Estou convidando para o Ch\u00e1 de Beb\u00ea do Miguel, ficarei muito feliz com sua presen\u00e7a!!!!!!","end_time":"2017-08-13T19:00:00-0300","name":"Ch\u00e1 de Fraldas do Miguel","place":{"name":"Estrada Rio do Pau, 2183 \/ casa 54 - Pavuna"},"start_time":"2017-08-13T16:00:00-0300","id":"805474029619355"}
{"description":"Orador Divin\u00edlson","end_time":"2017-06-11T19:30:00-0300","name":"Congresso Jovem Saia da Janela","place":{"name":"Igreja Adventista do S\u00e9timo Dia de Pavuna","location":{"city":"Rio de Janeiro","country":"Brazil","latitude":-22.8081493,"longitude":-43.3693619,"state":"RJ","street":"Rua Comendador Guerra, 346, Pavuna","zip":"21520-210"},"id":"207286422639358"},"start_time":"2017-06-09T19:30:00-0300","id":"419904018380509"}
{"description":"AMBIENTE MARAVILHOSO,COM PESSOAS ESPETACULARES PARA NOS CONHECERMOS E  DAN\u00c7ARMOS A MARAVILHOSA ARTE DE DAN\u00c7AR A DOIS!","end_time":"2017-08-26T23:00:00-0300","name":"JUNTOS&MISTURADOS","place":{"name":"Castelo da Pavuna","location":{"city":"Rio de Janeiro","country":"Brazil","latitude":-22.804324082915,"longitude":-43.365267167583,"state":"RJ","street":"Rua Professor Lindolfo Gomes 3","zip":"21532-400"},"id":"189450434429055"},"start_time":"2017-08-26T19:00:00-0300","id":"450270085326378"}
{"description":"\"Ao estudar sobre os Ensinos de Jesus, voc\u00ea alcance a esperan\u00e7a, a alegria e a salva\u00e7\u00e3o que s\u00f3 Ele pode nos proporcionar.\" Pastor Everon Donato (Minist\u00e9rio Pessoal, DSA)\n\n7\u00ba Tema: O que Jesus ensinou sobre o Dinheiro","end_time":"2017-06-18T21:00:00-0300","name":"Ensinos de Jesus - Dinheiro {Classe B\u00edblica}","place":{"name":"Igreja Adventista do S\u00e9timo Dia de Pavuna","location":{"city":"Rio de Janeiro","country":"Brazil","latitude":-22.8081493,"longitude":-43.3693619,"state":"RJ","street":"Rua Comendador Guerra, 346, Pavuna","zip":"21520-210"},"id":"207286422639358"},"start_time":"2017-06-18T19:30:00-0300","id":"137497823480132"}
{"description":"\"Ao estudar sobre os Ensinos de Jesus, voc\u00ea alcance a esperan\u00e7a, a alegria e a salva\u00e7\u00e3o que s\u00f3 Ele pode nos proporcionar.\" Pastor Everon Donato (Minist\u00e9rio Pessoal, DSA)\n\n9\u00ba Tema: O que Jesus ensinou sobre a Morte","end_time":"2017-07-09T21:00:00-0300","name":"Ensinos de Jesus - Morte {Classe B\u00edblica}","place":{"name":"Igreja Adventista do S\u00e9timo Dia de Pavuna","location":{"city":"Rio de Janeiro","country":"Brazil","latitude":-22.8081493,"longitude":-43.3693619,"state":"RJ","street":"Rua Comendador Guerra, 346, Pavuna","zip":"21520-210"},"id":"207286422639358"},"start_time":"2017-07-09T19:30:00-0300","id":"1063120387151790"}
{"description":"\"Ao estudar sobre os Ensinos de Jesus, voc\u00ea alcance a esperan\u00e7a, a alegria e a salva\u00e7\u00e3o que s\u00f3 Ele pode nos proporcionar.\" Pastor Everon Donato (Minist\u00e9rio Pessoal, DSA)\n\n8\u00ba Tema: O que Jesus ensinou sobre a Sua Volta","end_time":"2017-06-25T22:30:00-0300","name":"Ensinos de Jesus - Sua Volta {Classe B\u00edblica}","place":{"name":"Igreja Adventista do S\u00e9timo Dia de Pavuna","location":{"city":"Rio de Janeiro","country":"Brazil","latitude":-22.8081493,"longitude":-43.3693619,"state":"RJ","street":"Rua Comendador Guerra, 346, Pavuna","zip":"21520-210"},"id":"207286422639358"},"start_time":"2017-06-25T19:30:00-0300","id":"535173273540181"}
{"description":"* Em Breve + Informa\u00e7\u00f5es *","end_time":"2017-07-15T03:00:00-0300","name":"Colportor Evangelista","place":{"name":"Igreja Adventista do S\u00e9timo Dia de Pavuna","location":{"city":"Rio de Janeiro","country":"Brazil","latitude":-22.8081493,"longitude":-43.3693619,"state":"RJ","street":"Rua Comendador Guerra, 346, Pavuna","zip":"21520-210"},"id":"207286422639358"},"start_time":"2017-07-15T00:00:00-0300","id":"1282023521837118"}
{"description":"* Em Breve + Informa\u00e7\u00f5es *","end_time":"2017-08-02T03:00:00-0300","name":"Simp\u00f3sio do Esp\u00edrito de Profecia","place":{"name":"Igreja Adventista do S\u00e9timo Dia de Pavuna","location":{"city":"Rio de Janeiro","country":"Brazil","latitude":-22.8081493,"longitude":-43.3693619,"state":"RJ","street":"Rua Comendador Guerra, 346, Pavuna","zip":"21520-210"},"id":"207286422639358"},"start_time":"2017-08-02T00:00:00-0300","id":"1918123268418540"}
{"description":"\"Ao estudar sobre os Ensinos de Jesus, voc\u00ea alcance a esperan\u00e7a, a alegria e a salva\u00e7\u00e3o que s\u00f3 Ele pode nos proporcionar.\" Pastor Everon Donato (Minist\u00e9rio Pessoal, DSA)\n\n18\u00ba Tema: O que Jesus ensinou sobre Ritos e Tradi\u00e7\u00f5es","end_time":"2017-09-17T21:00:00-0300","name":"Ensinos de Jesus - Ritos e Tradi\u00e7\u00f5es {Classe B\u00edblica}","place":{"name":"Igreja Adventista do S\u00e9timo Dia de Pavuna","location":{"city":"Rio de Janeiro","country":"Brazil","latitude":-22.8081493,"longitude":-43.3693619,"state":"RJ","street":"Rua Comendador Guerra, 346, Pavuna","zip":"21520-210"},"id":"207286422639358"},"start_time":"2017-09-17T19:30:00-0300","id":"436349716739924"}
{"description":"\"Ao estudar sobre os Ensinos de Jesus, voc\u00ea alcance a esperan\u00e7a, a alegria e a salva\u00e7\u00e3o que s\u00f3 Ele pode nos proporcionar.\" Pastor Everon Donato (Minist\u00e9rio Pessoal, DSA)\n\n16\u00ba Tema: O que Jesus ensinou sobre o Batismo","end_time":"2017-09-03T21:00:00-0300","name":"Ensinos de Jesus - Batismo {Classe B\u00edblica}","place":{"name":"Igreja Adventista do S\u00e9timo Dia de Pavuna","location":{"city":"Rio de Janeiro","country":"Brazil","latitude":-22.8081493,"longitude":-43.3693619,"state":"RJ","street":"Rua Comendador Guerra, 346, Pavuna","zip":"21520-210"},"id":"207286422639358"},"start_time":"2017-09-03T19:30:00-0300","id":"1076676832433767"}
{"description":"\"Ao estudar sobre os Ensinos de Jesus, voc\u00ea alcance a esperan\u00e7a, a alegria e a salva\u00e7\u00e3o que s\u00f3 Ele pode nos proporcionar.\" Pastor Everon Donato (Minist\u00e9rio Pessoal, DSA)\n\n17\u00ba Tema: O que Jesus ensinou sobre o Cuidado com o Corpo","end_time":"2017-09-10T21:00:00-0300","name":"Ensinos de Jesus - Cuidado com o Corpo {Classe B\u00edblica}","place":{"name":"Igreja Adventista do S\u00e9timo Dia de Pavuna","location":{"city":"Rio de Janeiro","country":"Brazil","latitude":-22.8081493,"longitude":-43.3693619,"state":"RJ","street":"Rua Comendador Guerra, 346, Pavuna","zip":"21520-210"},"id":"207286422639358"},"start_time":"2017-09-10T19:30:00-0300","id":"1281606795285678"}
{"description":"\"Ao estudar sobre os Ensinos de Jesus, voc\u00ea alcance a esperan\u00e7a, a alegria e a salva\u00e7\u00e3o que s\u00f3 Ele pode nos proporcionar.\" Pastor Everon Donato (Minist\u00e9rio Pessoal, DSA)\n\n10\u00ba Tema: O que Jesus ensinou sobre a Ressurrei\u00e7\u00e3o","end_time":"2017-07-16T21:00:00-0300","name":"Ensinos de Jesus - Ressurrei\u00e7\u00e3o {Classe B\u00edblica}","place":{"name":"Igreja Adventista do S\u00e9timo Dia de Pavuna","location":{"city":"Rio de Janeiro","country":"Brazil","latitude":-22.8081493,"longitude":-43.3693619,"state":"RJ","street":"Rua Comendador Guerra, 346, Pavuna","zip":"21520-210"},"id":"207286422639358"},"start_time":"2017-07-16T19:30:00-0300","id":"646473288883312"}
{"description":"\"Ao estudar sobre os Ensinos de Jesus, voc\u00ea alcance a esperan\u00e7a, a alegria e a salva\u00e7\u00e3o que s\u00f3 Ele pode nos proporcionar.\" Pastor Everon Donato (Minist\u00e9rio Pessoal, DSA)\n\n12\u00ba Tema: O que Jesus ensinou sobre a Lei","end_time":"2017-07-30T21:00:00-0300","name":"Ensinos de Jesus - Lei {Classe B\u00edblica}","place":{"name":"Igreja Adventista do S\u00e9timo Dia de Pavuna","location":{"city":"Rio de Janeiro","country":"Brazil","latitude":-22.8081493,"longitude":-43.3693619,"state":"RJ","street":"Rua Comendador Guerra, 346, Pavuna","zip":"21520-210"},"id":"207286422639358"},"start_time":"2017-07-30T19:30:00-0300","id":"1771512949531860"}
{"description":"\"Ao estudar sobre os Ensinos de Jesus, voc\u00ea alcance a esperan\u00e7a, a alegria e a salva\u00e7\u00e3o que s\u00f3 Ele pode nos proporcionar.\" Pastor Everon Donato (Minist\u00e9rio Pessoal, DSA)\n\n14\u00ba Tema: O que Jesus ensinou sobre a Igreja","end_time":"2017-08-20T21:00:00-0300","name":"Ensinos de Jesus - Igreja {Classe B\u00edblica}","place":{"name":"Igreja Adventista do S\u00e9timo Dia de Pavuna","location":{"city":"Rio de Janeiro","country":"Brazil","latitude":-22.8081493,"longitude":-43.3693619,"state":"RJ","street":"Rua Comendador Guerra, 346, Pavuna","zip":"21520-210"},"id":"207286422639358"},"start_time":"2017-08-20T19:30:00-0300","id":"463312957351824"}
{"description":"\"Ao estudar sobre os Ensinos de Jesus, voc\u00ea alcance a esperan\u00e7a, a alegria e a salva\u00e7\u00e3o que s\u00f3 Ele pode nos proporcionar.\" Pastor Everon Donato (Minist\u00e9rio Pessoal, DSA)\n\n15\u00ba Tema: O que Jesus ensinou sobre os Profetas","end_time":"2017-08-27T21:00:00-0300","name":"Ensinos de Jesus - Profetas {Classe B\u00edblica}","place":{"name":"Igreja Adventista do S\u00e9timo Dia de Pavuna","location":{"city":"Rio de Janeiro","country":"Brazil","latitude":-22.8081493,"longitude":-43.3693619,"state":"RJ","street":"Rua Comendador Guerra, 346, Pavuna","zip":"21520-210"},"id":"207286422639358"},"start_time":"2017-08-27T19:30:00-0300","id":"1189294781180534"}
{"description":"\"Ao estudar sobre os Ensinos de Jesus, voc\u00ea alcance a esperan\u00e7a, a alegria e a salva\u00e7\u00e3o que s\u00f3 Ele pode nos proporcionar.\" Pastor Everon Donato (Minist\u00e9rio Pessoal, DSA)\n\n13\u00ba Tema: O que Jesus ensinou sobre o S\u00e1bado","end_time":"2017-08-13T21:00:00-0300","name":"Ensinos de Jesus - S\u00e1bado {Classe B\u00edblica}","place":{"name":"Igreja Adventista do S\u00e9timo Dia de Pavuna","location":{"city":"Rio de Janeiro","country":"Brazil","latitude":-22.8081493,"longitude":-43.3693619,"state":"RJ","street":"Rua Comendador Guerra, 346, Pavuna","zip":"21520-210"},"id":"207286422639358"},"start_time":"2017-08-13T19:30:00-0300","id":"1776880202603030"}
{"description":"* Em Breve + Informa\u00e7\u00f5es *","end_time":"2017-06-17T03:00:00-0300","name":"Simp\u00f3sio do Esp\u00edrito de Profecia","place":{"name":"Igreja Adventista do S\u00e9timo Dia de Pavuna","location":{"city":"Rio de Janeiro","country":"Brazil","latitude":-22.8081493,"longitude":-43.3693619,"state":"RJ","street":"Rua Comendador Guerra, 346, Pavuna","zip":"21520-210"},"id":"207286422639358"},"start_time":"2017-06-17T00:00:00-0300","id":"360413704313212"}
{"description":"*Em Breve + Informa\u00e7\u00f5es*\n\nCurso para novos colportores, 2\u00aa edi\u00e7\u00e3o.","end_time":"2017-08-23T03:00:00-0300","name":"Novos Colportores","place":{"name":"Igreja Adventista do S\u00e9timo Dia de Pavuna","location":{"city":"Rio de Janeiro","country":"Brazil","latitude":-22.8081493,"longitude":-43.3693619,"state":"RJ","street":"Rua Comendador Guerra, 346, Pavuna","zip":"21520-210"},"id":"207286422639358"},"start_time":"2017-08-21T00:00:00-0300","id":"221412981649360"}
{"description":"Prepare a sua caravana para participar desse mega evento.\nNos pr\u00f3ximos meses colocaremos mais informa\u00e7\u00f5es.","end_time":"2017-11-12T17:00:00-0200","name":"Casa Aberta 2017","place":{"name":"Igreja Adventista do S\u00e9timo Dia de Pavuna","location":{"city":"Rio de Janeiro","country":"Brazil","latitude":-22.8081493,"longitude":-43.3693619,"state":"RJ","street":"Rua Comendador Guerra, 346, Pavuna","zip":"21520-210"},"id":"207286422639358"},"start_time":"2017-11-12T09:00:00-0200","id":"1054195644708683"}
{"description":"Vig\u00edlia do Minist\u00e9rio Jovem, vem muitas novidades por a\u00ed...","end_time":"2017-08-26T20:00:00-0300","name":"Meu Talento Meu Minist\u00e9rio","place":{"name":"Igreja Adventista do S\u00e9timo Dia de Pavuna","location":{"city":"Rio de Janeiro","country":"Brazil","latitude":-22.8081493,"longitude":-43.3693619,"state":"RJ","street":"Rua Comendador Guerra, 346, Pavuna","zip":"21520-210"},"id":"207286422639358"},"start_time":"2017-08-26T17:00:00-0300","id":"1319457824814459"}
